Cidade,latitude,longitude
APPA Antonina,-25.446055876944897,-48.694330134012525
Abatiá,-23.304863,-50.313281
Adrianópolis,-24.660607,-48.992164
Agudos do Sul,-25.9899,-49.334293
Almirante Tamandaré,-25.318819,-49.303733
Altamira do Paraná,-24.798293,-52.712829
Alto Paraná,-23.131247,-52.318893
Alto Paraíso,-23.508137,-53.728537
Alto Piquiri,-24.022427,-53.440045
Altônia,-23.875916,-53.895809
Alvorada do Sul,-22.781282,-51.229709
Amaporã,-23.094272,-52.786597
Ampére,-25.916791,-53.46864
Anahy,-24.644865,-53.133235
Andirá,-23.053267,-50.230359
Antonina,-25.438597,-48.719113
Antônio Olinto,-25.98038,-50.197183
Apucarana,-23.549961,-51.463486
Arapongas,-23.415296,-51.42592
Arapoti,-24.154798,-49.828453
Arapuã,-24.313181,-51.785637
Araruna,-23.9315,-52.502101
Araucária,-25.585939,-49.404748
Ariranha do Ivaí,-24.385708,-51.583935
Assaí,-23.369679,-50.845925
Assis Chateaubriand,-24.416826,-53.521327
Astorga,-23.231827,-51.666777
Atalaia,-23.151721,-52.055096
Baixo Iguaçu,-25.50484744970921,-53.67439057115962
Balsa Nova,-25.58037,-49.629079
Bandeirantes,-23.107788,-50.370407
Barbosa Ferraz,-24.033382,-52.003963
Barra do Jacaré,-23.116041,-50.184162
Barracão,-26.25023,-53.632385
Bela Vista da Caroba,-25.884179,-53.672505
Bela Vista do Paraíso,-22.993653,-51.192657
Bituruna,-26.160746,-51.551792
Boa Esperança,-24.246738,-52.78756
Boa Esperança do Iguaçu,-25.632435,-53.210818
Boa Ventura de São Roque,-24.868797,-51.627612
Boa Vista da Aparecida,-25.430755,-53.411694
Bocaiúva do Sul,-25.206591,-49.114131
Bom Jesus do Sul,-26.195802,-53.595493
Bom Sucesso,-23.706313,-51.767056
Bom Sucesso do Sul,-26.073113,-52.835297
Borrazópolis,-23.936607,-51.587507
Braganey,-24.81734,-53.121787
Brasilândia do Sul,-24.197762,-53.527527
Cafeara,-22.78905,-51.714195
Cafelândia,-24.618862,-53.320705
Cafezal do Sul,-23.900508,-53.512418
Califórnia,-23.656587,-51.357367
Cambará,-23.042273,-50.075281
Cambira,-23.589018,-51.579152
Cambé,-23.276575,-51.279832
Campina Grande do Sul,-25.30439,-49.055096
Campina da Lagoa,-24.589323,-52.79759
Campina do Simão,-25.080171,-51.82371
Campo Bonito,-25.029445,-52.993933
Campo Largo,-25.452535,-49.529026
Campo Magro,-25.368685,-49.450092
Campo Mourão,-24.046329,-52.37802
Campo do Tenente,-25.980014,-49.684364
Candói,-25.575847,-52.040876
Cantagalo,-25.373359,-52.119818
Capanema,-25.669099,-53.805508
Capitão Leônidas Marques,-25.481645,-53.611238
Carambeí,-24.915237,-50.098624
Carlópolis,-23.426897,-49.723486
Cascavel,-24.957301,-53.459005
Castro,-24.789086,-50.010767
Catanduvas,-25.204356,-53.154826
Centenário do Sul,-22.818764,-51.597268
Cerro Azul,-24.822128,-49.253626
Chopinzinho,-25.851546,-52.517293
Cianorte,-23.659859,-52.605444
Cidade Gaúcha,-23.377186,-52.943575
Clevelândia,-26.404288,-52.350794
Colombo,-25.292487,-49.22616
Colorado,-22.837422,-51.974301
Congonhinhas,-23.54931,-50.556872
Conselheiro Mairinck,-23.626382,-50.170803
Contenda,-25.678811,-49.535044
Corbélia,-24.797122,-53.300576
Cornélio Procópio,-23.182911,-50.64977
Coronel Domingos Soares,-26.227684,-52.03565
Coronel Vivida,-25.976686,-52.564054
Corumbataí do Sul,-24.100956,-52.11766
Cruz Machado,-26.01664,-51.342965
Cruzeiro do Iguaçu,-25.619214,-53.128484
Cruzeiro do Oeste,-23.779943,-53.077442
Cruzeiro do Sul,-22.96244,-52.16221
Cruzmaltina,-24.013218,-51.456331
Curitiba,-25.419547,-49.264622
Curiúva,-24.036168,-50.457638
Cândido de Abreu,-24.564895,-51.33719
Céu Azul,-25.148876,-53.841473
Diamante d`Oeste,-24.941858,-54.105157
Diamante do Norte,-22.654967,-52.861662
Diamante do Sul,-25.035007,-52.676782
Dois Vizinhos,-25.740694,-53.057016
Douradina,-23.38072,-53.291794
Doutor Camargo,-23.558152,-52.21781
Doutor Ulysses,-24.566546,-49.421931
Engenheiro Beltrão,-23.797028,-52.265877
Entre Rios,-26.72442278055944,-52.56458099538741
Entre Rios do Oeste,-24.70421,-54.238507
Enéas Marques,-25.944525,-53.16586
Esperança Nova,-23.723782,-53.810979
Espigão Alto do Iguaçu,-25.421635,-52.834798
Farol,-24.095842,-52.621693
Faxinal,-24.007671,-51.322665
Fazenda Gralha Azul-PUC,-25.657968013728865,-49.28812263215802
Fazenda Rio Grande,-25.662354,-49.30731
Fernandes Pinheiro,-25.410742,-50.545601
Figueira,-23.845542,-50.403068
Flor da Serra do Sul,-26.252326,-53.309213
Floraí,-23.317808,-52.302885
Floresta,-23.603054,-52.080656
Florestópolis,-22.862263,-51.388157
Flórida,-23.084703,-51.954559
Formosa do Oeste,-24.295097,-53.311378
Foz do Iguaçu,-25.542748,-54.582689
Foz do Jordão,-25.737094,-52.118829
Francisco Alves,-24.066725,-53.846124
Francisco Beltrão,-26.081677,-53.053466
Fênix,-23.913547,-51.980522
General Carneiro,-26.424974,-51.317224
Godoy Moreira,-24.17298,-51.924636
Goioerê,-24.183481,-53.024842
Goioxim,-25.192652,-51.991091
Grandes Rios,-24.146606,-51.509378
Guaira,-24.084039634931404,-54.243965439123855
Guairaçá,-22.931978,-52.690625
Guamiranga,-25.191167,-50.802109
Guapirama,-23.52035,-50.040699
Guaporema,-23.340218,-52.778605
Guaraci,-22.969426,-51.650406
Guaraniaçu,-25.096822,-52.875531
Guarapuava,-25.390237,-51.462317
Guaraqueçaba,-25.307056,-48.320426
Guaratuba,-25.881672,-48.575223
Guaíra,-24.085005,-54.257327
Honório Serpa,-26.139021,-52.384839
Ibaiti,-23.847822,-50.193208
Ibema,-25.111335,-53.014616
Ibiporã,-23.265941,-51.052243
Icaraíma,-23.394354,-53.614979
Iguaraçu,-23.194896,-51.825552
Iguatu,-24.715277,-53.082724
Imbaú,-24.44801,-50.753269
Imbituva,-25.228538,-50.598856
Inajá,-22.750929,-52.199499
Indianópolis,-23.476234,-52.698865
Inácio Martins,-25.570395,-51.076925
Ipiranga,-25.023769,-50.579378
Iporã,-24.008349,-53.706031
Iracema do Oeste,-24.426155,-53.35279
Irati,-25.469663,-50.649287
Iretama,-24.42529,-52.101161
Itaguajé,-22.618282,-51.967351
Itaipulândia,-25.136623,-54.300102
Itambaracá,-23.018113,-50.409654
Itambé,-23.660056,-51.991236
Itapejara d`Oeste,-25.96203,-52.813823
Itaperuçu,-25.21926,-49.345427
Itaúna do Sul,-22.728942,-52.887395
Ivaiporã,-24.248533,-51.675426
Ivatuba,-23.618722,-52.220272
Ivaté,-23.407206,-53.368705
Ivaí,-25.006734,-50.857041
Jaboti,-23.743502,-50.072904
Jacarezinho,-23.159115,-49.973889
Jaguapitã,-23.110388,-51.534195
Jaguariaiva,-24.251542202185597,-49.70945291352196
Jaguariaíva,-24.24389,-49.706642
Jandaia do Sul,-23.601089,-51.644819
Janiópolis,-24.140124,-52.77836
Japira,-23.814227,-50.142211
Japurá,-23.469273,-52.55572
Jardim Alegre,-24.180913,-51.690197
Jardim Olinda,-22.552255,-52.050298
Jataizinho,-23.257815,-50.977748
Jesuítas,-24.383918,-53.38492
Joaquim Távora,-23.498654,-49.908998
Jundiaí do Sul,-23.435671,-50.249579
Juranda,-24.420866,-52.841344
Jussara,-23.621931,-52.46931
Kaloré,-23.818835,-51.668709
Lapa,-25.76709,-49.716777
Laranjal,-24.886153,-52.470041
Laranjeiras do Sul,-25.407672,-52.410854
Leópolis,-23.081781,-50.751085
Lidianópolis,-24.10997,-51.650629
Lindoeste,-25.259616,-53.573298
Loanda,-22.923194,-53.136216
Lobato,-23.005782,-51.952419
Londrina,-23.303975,-51.1691
Luiziana,-24.285284,-52.269022
Lunardelli,-24.082055,-51.736783
Lupionópolis,-22.754987,-51.660085
Mallet,-25.880588,-50.817346
Mamborê,-24.316951,-52.527119
Mandaguari,-23.54459,-51.671027
Mandaguaçu,-23.345766,-52.094369
Mandirituba,-25.777036,-49.328225
Manfrinópolis,-26.147968,-53.315257
Mangueirinha,-25.942102,-52.174275
Manoel Ribas,-24.514363,-51.665822
Marechal Cândido Rondon,-24.557891,-54.056115
Maria Helena,-23.615754,-53.205333
Marialva,-23.484316,-51.792802
Marilena,-22.733552,-53.040239
Mariluz,-24.008888,-53.143242
Marilândia do Sul,-23.742534,-51.313737
Maringá,-23.420545,-51.933298
Maripá,-24.419978,-53.828641
Mariópolis,-26.351072,-52.549736
Marmeleiro,-26.1472,-53.026741
Marquinho,-25.112,-52.249676
Marumbi,-23.705764,-51.640374
Matelândia,-25.249571,-53.993492
Matinhos,-25.823655,-48.549012
Mato Rico,-24.699538,-52.14544
Mauá da Serra,-23.898761,-51.227732
Medianeira,-25.297665,-54.094308
Mercedes,-24.453791,-54.161826
Mirador,-23.254951,-52.776081
Miraselva,-22.965663,-51.484606
Missal,-25.091855,-54.247664
Moreira Sales,-24.052657,-53.00564
Morretes,-25.474365,-48.834533
Munhoz de Melo,-23.14601,-51.773162
Nossa Senhora das Graças,-22.912926,-51.797764
Nova Aliança do Ivaí,-23.176271,-52.603244
Nova América da Colina,-23.330772,-50.716821
Nova Aurora,-24.528859,-53.257449
Nova Cantu,-24.672324,-52.566078
Nova Esperança,-23.18202,-52.203139
Nova Esperança do Sudoeste,-25.90607,-53.26524
Nova Fátima,-23.432447,-50.566507
Nova Laranjeiras,-25.305376,-52.544682
Nova Londrina,-22.763931,-52.98677
Nova Olímpia,-23.470252,-53.089799
Nova Prata do Iguaçu,-25.630908,-53.346862
Nova Santa Bárbara,-23.586534,-50.759798
Nova Santa Rosa,-24.469293,-53.955249
Nova Tebas,-24.437958,-51.945357
Novo Itacolomi,-23.76308,-51.50789
Ortigueira,-24.205811,-50.918508
Ourizona,-23.405342,-52.19638
Ouro Verde do Oeste,-24.793258,-53.904303
Paiçandu,-23.455534,-52.046013
Palmas,-26.483868,-51.988812
Palmas - Horizonte,-26.580715652126788,-51.57496281658496
Palmeira,-25.425716,-50.007027
Palmital,-24.885301,-52.202854
Palotina,-24.286784,-53.840422
Paranacity,-22.929713,-52.154946
Paranaguá,-25.516078,-48.522528
Paranapoema,-22.64124,-52.09052
Paranavaí,-23.08165,-52.461724
Paraíso do Norte,-23.28242,-52.605429
Pato Bragado,-24.624625,-54.228115
Pato Branco,-26.229237,-52.67063
Paula Freitas,-26.210513,-50.930983
Paulo Frontin,-26.046565,-50.830423
Peabiru,-23.914013,-52.343107
Perobal,-23.894861,-53.409838
Pinhais,-25.442949,-49.19267
Pinhal de São Bento,-26.032422,-53.481998
Pinhalão,-23.798176,-50.053571
Pinhão,-25.694388,-51.653595
Piraquara,-25.442171,-49.062411
Piraí do Sul,-24.530637,-49.943312
Pitanga,-24.758773,-51.759645
Pitangueiras,-23.228134,-51.587277
Piên,-26.09647,-49.433565
Planaltina do Paraná,-23.010146,-52.916242
Planalto,-25.721135,-53.764234
Ponta Grossa,-25.091622,-50.166787
Pontal do Paraná,-25.673533,-48.511062
Porecatu,-22.753724,-51.37949
Porto Amazonas,-25.540002,-49.894591
Porto Barreiro,-25.547696,-52.406744
Porto Rico,-22.774742,-53.267731
Porto Vitória,-26.167404,-51.230976
Prado Ferreira,-23.035698,-51.442883
Pranchita,-26.021968,-53.741112
Presidente Castelo Branco,-23.278233,-52.153563
Primeiro de Maio,-22.851714,-51.029251
Prudentópolis,-25.211083,-50.975396
Pérola,-23.803898,-53.683353
Pérola d`Oeste,-25.820958,-53.744742
Quarto Centenário,-24.277499,-53.075884
Quatiguá,-23.567056,-49.91601
Quatro Barras,-25.367317,-49.076306
Quatro Pontes,-24.575152,-53.975885
Quedas do Iguaçu,-25.449161,-52.910231
Querência do Norte,-23.083758,-53.483022
Quinta do Sol,-23.853272,-52.130908
Quitandinha,-25.873438,-49.497327
Ramilândia,-25.119472,-54.023015
Rancho Alegre,-23.067594,-50.914453
Rancho Alegre d`Oeste,-24.303548,-52.949883
Realeza,-25.771093,-53.52603
Rebouças,-25.623198,-50.687727
Renascença,-26.158837,-52.970349
Reserva,-24.649169,-50.846604
Reserva Natural Salto Morato,-25.169622922034883,-48.29754103993973
Reserva do Iguaçu,-25.831905,-52.027215
Ribeirão Claro,-23.194132,-49.759742
Ribeirão do Pinhal,-23.409068,-50.360145
Rio Azul,-25.73058,-50.798543
Rio Bom,-23.760583,-51.41224
Rio Bonito do Iguaçu,-25.487384,-52.529206
Rio Branco do Ivaí,-24.324449,-51.318684
Rio Branco do Sul,-25.189189,-49.311546
Rio Negro,-26.095021,-49.79823
Rolândia,-23.31012,-51.365928
Roncador,-24.595795,-52.271569
Rondon,-23.411958,-52.765877
Rosário do Ivaí,-24.26824,-51.272007
Sabáudia,-23.315512,-51.555005
Salgado Filho,-26.177664,-53.363116
Salto do Itararé,-23.607356,-49.635384
Salto do Lontra,-25.781257,-53.313528
Santa Amélia,-23.265421,-50.428765
Santa Cecília do Pavão,-23.520081,-50.783528
Santa Cruz de Monte Castelo,-22.954225,-53.296342
Santa Fé,-23.039993,-51.808014
Santa Helena,-24.858494,-54.33601
Santa Inês,-22.637595,-51.902385
Santa Isabel do Ivaí,-23.002482,-53.19889
Santa Izabel do Oeste,-25.821652,-53.480146
Santa Lúcia,-25.410355,-53.563796
Santa Maria do Oeste,-24.937701,-51.869564
Santa Mariana,-23.14652,-50.516728
Santa Mônica,-23.108005,-53.110297
Santa Tereza do Oeste,-25.054316,-53.627417
Santa Terezinha de Itaipu,-25.434417,-54.400725
Santana do Itararé,-23.758692,-49.629314
Santo Antônio da Platina,-23.295889,-50.081478
Santo Antônio do Caiuá,-22.735084,-52.344022
Santo Antônio do Paraíso,-23.496903,-50.645541
Santo Antônio do Sudoeste,-26.073708,-53.7251
Santo Inácio,-22.695666,-51.796937
Sapopema,-23.907832,-50.580062
Sarandi,-23.444117,-51.876016
Saudade do Iguaçu,-25.691686,-52.618391
Sengés,-24.112884,-49.461568
Serranópolis do Iguaçu,-25.379915,-54.051822
Sertaneja,-23.036095,-50.831656
Sertanópolis,-23.057057,-51.039948
Siqueira Campos,-23.687481,-49.830416
Sulina,-25.706553,-52.729869
São Carlos do Ivaí,-23.315828,-52.476143
São Jerônimo da Serra,-23.721765,-50.747536
São Jorge d`Oeste,-25.699002,-52.913092
São Jorge do Ivaí,-23.433592,-52.292907
São Jorge do Patrocínio,-23.764744,-53.882275
São José da Boa Vista,-23.912195,-49.657667
São José das Palmeiras,-24.836883,-54.057225
São José dos Pinhais,-25.531343,-49.203097
São João,-25.821375,-52.72524
São João do Caiuá,-22.853502,-52.341065
São João do Ivaí,-23.983281,-51.821544
São João do Triunfo,-25.682971,-50.29492
São Manoel do Paraná,-23.394137,-52.645376
São Mateus do Sul,-25.867655,-50.383985
São Miguel do Iguaçu,-25.349171,-54.240498
São Pedro do Iguaçu,-24.937311,-53.852141
São Pedro do Ivaí,-23.863394,-51.856775
São Pedro do Paraná,-22.823882,-53.224141
São Sebastião da Amoreira,-23.46564,-50.762536
São Tomé,-23.534946,-52.590125
Tamarana,-23.720365,-51.099054
Tamboara,-23.203558,-52.474272
Tapejara,-23.731462,-52.873487
Tapira,-23.319343,-53.068446
Teixeira Soares,-25.3701,-50.457072
Telêmaco Borba,-24.32452,-50.617585
Terra Boa,-23.768329,-52.447002
Terra Rica,-22.711101,-52.61878
Terra Roxa,-24.157455,-54.098816
Tibagi,-24.515316,-50.417587
Tijucas do Sul,-25.931054,-49.195017
Toledo,-24.724641,-53.741177
Tomazina,-23.77962,-49.949948
Três Barras do Paraná,-25.418517,-53.18335
Tunas do Paraná,-24.973084,-49.087889
Tuneiras do Oeste,-23.864798,-52.876874
Tupãssi,-24.587887,-53.51051
Turvo,-25.043671,-51.528223
Ubiratã,-24.539292,-52.986485
Umuarama,-23.765634,-53.32011
Uniflor,-23.08683,-52.157307
União da Vitória,-26.227319,-51.087313
Uraí,-23.199997,-50.793873
Ventania,-24.24582,-50.237577
Vera Cruz do Oeste,-25.057688,-53.877096
Verê,-25.877201,-52.905108
Virmond,-25.382911,-52.198715
Vitorino,-26.268282,-52.784266
Wenceslau Braz,-23.874217,-49.803201
Xambrê,-23.736409,-53.48843
Ângulo,-23.194609,-51.915356
